{"data":
[
  {
    "monument_id": 1,
    "latitude": 48.973298,
    "longitude": 12.994826,
    "thumbnail": "https://www.geobrugg.com/bild.php?src=portal%2Fgalerien%2Fpics%2FTest-Benjamin%2FZachenberg_142x80.jpg&new_max_width=400&new_max_height=600",
    "site_name": "DB Zachenberg km 98-98.35",
    "category": "Natural",
    "states": "Germany",
    "inscribed_date": 2014
  },
  {
    "monument_id": 2,
    "latitude": 47.510728,
    "longitude": 10.390112,
    "thumbnail": "https://www.geobrugg.com/bild.php?src=portal%2Fgalerien%2Fpics%2FTest-Benjamin%2FOberjoch_142x80.jpg&new_max_width=400&new_max_height=600",
    "site_name": "Oberjoch B308",
    "category": "Natural",
    "states": "Germany",
    "inscribed_date": 2016
  },
  {
    "monument_id": 3,
    "latitude": 49.992146,
    "longitude": 9.759026,
    "thumbnail": "https://www.geobrugg.com/bild.php?src=portal%2Fgalerien%2Fpics%2FTest-Benjamin%2FKarlstadt_142x80.jpg&new_max_width=400&new_max_height=600",
    "site_name": "Karlstadt B26",
    "category": "Natural",
    "states": "Germany",
    "inscribed_date": 2017
  },
  {
    "monument_id": 4,
    "latitude": 49.959275,
    "longitude": 11.292152,
    "thumbnail": "https://www.geobrugg.com/bild.php?src=portal%2Fgalerien%2Fpics%2FTest-Benjamin%2FHollfeld_142x80.jpg&new_max_width=400&new_max_height=600",
    "site_name": "Hollfeld St2189",
    "category": "Natural",
    "states": "Germany",
    "inscribed_date": 2017
  },
  {
    "monument_id": 5,
    "latitude": 48.575925,
    "longitude": 13.491889,
    "thumbnail": "https://www.geobrugg.com/bild.php?src=portal%2Fgalerien%2Fpics%2FTest-Benjamin%2FFelssicherung_Passau_142x80.jpg&new_max_width=400&new_max_height=600&fbclid=IwAR2LFLDOUhzKlHhf-hTyi5mE3vVCdG73RA0phmlIdGCCJAjVAUXneaq6Ngk",
    "site_name": "Felssicherung Passau B12/B388",
    "category": "Natural",
    "states": "Germany",
    "inscribed_date": 2017
  },
  {
    "monument_id": 6,
    "latitude": 49.014222,
    "longitude": 12.024705,
    "thumbnail": "https://www.geobrugg.com/bild.php?src=portal%2Fgalerien%2Fpics%2FTest-Benjamin%2FDB_Regensburg_142x80.jpg&new_max_width=400&new_max_height=600",
    "site_name": "DB Regensburg",
    "category": "Cultural",
    "states": "Germany",
    "inscribed_date": 2017
  }
]
}