{"data":
[
  {
    "monument_id": 1,
    "latitude": 48.973298,
    "longitude": 12.994826,
    "thumbnail": "https://www.geobrugg.com/bild.php?src=portal%2Fgalerien%2Fpics%2FTest-Benjamin%2FZachenberg_142x80.jpg&new_max_width=400&new_max_height=600",
    "site_name": "DB Zachenberg km 98-98.35",
    "category": "Rockfall",
    "states": "Germany",
    "inscribed_date": 2014,
    "criteria":"GBE-500A, RXE-1000"
  },
  {
    "monument_id": 2,
    "latitude": 47.510728,
    "longitude": 10.390112,
    "thumbnail": "https://www.geobrugg.com/bild.php?src=portal%2Fgalerien%2Fpics%2FTest-Benjamin%2FOberjoch_142x80.jpg&new_max_width=400&new_max_height=600",
    "site_name": "Oberjoch B308",
    "category": "Rockfall",
    "states": "Germany",
    "inscribed_date": 2016,
    "criteria":"GBE-500A, GBE-500A-2"
  },
  {
    "monument_id": 3,
    "latitude": 49.992146,
    "longitude": 9.759026,
    "thumbnail": "https://www.geobrugg.com/bild.php?src=portal%2Fgalerien%2Fpics%2FTest-Benjamin%2FKarlstadt_142x80.jpg&new_max_width=400&new_max_height=600",
    "site_name": "Karlstadt B26",
    "category": "Rockfall",
    "states": "Germany",
    "inscribed_date": 2017,
    "criteria":"RXE-3000"
  },
  {
    "monument_id": 4,
    "latitude": 49.959275,
    "longitude": 11.292152,
    "thumbnail": "https://www.geobrugg.com/bild.php?src=portal%2Fgalerien%2Fpics%2FTest-Benjamin%2FHollfeld_142x80.jpg&new_max_width=400&new_max_height=600",
    "site_name": "Hollfeld St2189",
    "category": "Rockfall",
    "states": "Germany",
    "inscribed_date": 2017,
    "criteria":"RXE-500-LA"
  },
  {
    "monument_id": 5,
    "latitude": 48.575925,
    "longitude": 13.491889,
    "thumbnail": "https://www.geobrugg.com/bild.php?src=portal%2Fgalerien%2Fpics%2FTest-Benjamin%2FFelssicherung_Passau_142x80.jpg&new_max_width=400&new_max_height=600&fbclid=IwAR2LFLDOUhzKlHhf-hTyi5mE3vVCdG73RA0phmlIdGCCJAjVAUXneaq6Ngk",
    "site_name": "Felssicherung Passau",
    "category": "Rockfall",
    "states": "Germany",
    "inscribed_date": 2017,
    "criteria":"RXE-1000, RXE-500-LA"
  },
  {
    "monument_id": 6,
    "latitude": 49.014222,
    "longitude": 12.024705,
    "thumbnail": "https://www.geobrugg.com/bild.php?src=portal%2Fgalerien%2Fpics%2FTest-Benjamin%2FDB_Regensburg_142x80.jpg&new_max_width=400&new_max_height=600",
    "site_name": "DB Regensburg",
    "category": "Rockfall",
    "states": "Germany",
    "inscribed_date": 2017,
    "criteria":"RXE-500-LA, RXE-1000-4"
  },
  {
    "monument_id": 7,
    "latitude": 50.162984,
    "longitude": 7.181564,
    "thumbnail": "https://www.geobrugg.com/bild.php?src=portal%2Fgalerien%2Fpics%2FTest-Benjamin%2FCochem_thumbnail_142x80.JPG&new_max_width=400&new_max_height=600",
    "site_name": "DB Cochem",
    "category": "Rockfall",
    "states": "Germany",
    "inscribed_date": 2010,
    "criteria":"RXI-100"
  },
  {
    "monument_id": 8,
    "latitude": 51.00477,
    "longitude": 11.668207,
    "thumbnail": "https://www.geobrugg.com/bild.php?src=portal%2Fgalerien%2Fpics%2FTest-Benjamin%2F8_Dornburg_thumbnail_142x80.JPG&new_max_width=400&new_max_height=600",
    "site_name": "Dornburg L 2303",
    "category": "Rockfall",
    "states": "Germany",
    "inscribed_date": 2013,
    "criteria":"RXI-300, GBE-5000A, TXI-010G, RXI-025"
  },
  {
    "monument_id": 9,
    "latitude": 45.9676131,
    "longitude": 14.0578409,
    "thumbnail": "https://www.geobrugg.com/bild.php?src=portal%2Fgalerien%2Fpics%2FTest-Benjamin%2FRenke_thumbnail_142x80.jpg&new_max_width=400&new_max_height=600",
    "site_name": "Renke L2",
    "category": "Slope",
    "states": "Slovenia",
    "inscribed_date": 2017,
    "criteria":"RXE-500"
  },
  {
    "monument_id": 10,
    "latitude": 57.381111,
    "longitude": -5.475278,
    "thumbnail": "https://www.geobrugg.com/bild.php?src=portal%2Fgalerien%2Fpics%2FTest-Benjamin%2FRenke_thumbnail_142x80.jpg&new_max_width=400&new_max_height=600",
    "site_name": "Stromeferry",
    "category": "Corrosion",
    "states": "United Kingdom",
    "inscribed_date": 2019,
    "criteria":"TECCO"
  }
]
}